{
"type": "FeatureCollection",
"name": "projects",
"crs": { "type": "name", "properties": { "name": "urn:ogc:def:crs:OGC:1.3:CRS84" } },
"features": [
{ "type": "Feature", "properties": { "id": 1, "name": "Музей леса", "city": "Шарья", "src": "/images/1.jpg" }, "geometry": { "type": "Point", "coordinates": [ 45.487821868758616, 58.38488409002791 ] } },
{ "type": "Feature", "properties": { "id": 2, "name": "Дорогами Победы", "city": "Сергиев Посад", "src": "/images/2.jpg" }, "geometry": { "type": "Point", "coordinates": [ 38.135981255862731, 56.320056187861937 ] } },
{ "type": "Feature", "properties": { "id": 3, "name": "Тундровый сад", "city": "Мончегорск", "src": "/images/3.jpg" }, "geometry": { "type": "Point", "coordinates": [ 32.966866372943834, 67.945389367048477 ] } },
{ "type": "Feature", "properties": { "id": 4, "name": "Бира-парк", "city": "Биробиджан", "src": "/images/4.jpg" }, "geometry": { "type": "Point", "coordinates": [ 132.931663022062821, 48.783830299605192 ] } },
{ "type": "Feature", "properties": { "id": 5, "name": "Ткацкий двор", "city": "Нерехта", "src": "/images/5.jpg" }, "geometry": { "type": "Point", "coordinates": [ 40.582020437503942, 57.460326816408873 ] } },
{ "type": "Feature", "properties": { "id": 6, "name": "Ветер перемен", "city": "Баймак", "src": "/images/6.jpg" }, "geometry": { "type": "Point", "coordinates": [ 58.308194115456494, 52.597866163398848 ] } },
{ "type": "Feature", "properties": { "id": 7, "name": "Парусинка", "city": "Ивангород", "src": "/images/7.jpg" }, "geometry": { "type": "Point", "coordinates": [ 28.202485635754876, 59.357647032316109 ] } },
{ "type": "Feature", "properties": { "id": 8, "name": "Раскрывая горизонты", "city": "Межгорье", "src": "/images/8.jpg" }, "geometry": { "type": "Point", "coordinates": [ 57.973494346227021, 54.241605176537085 ] } },
{ "type": "Feature", "properties": { "id": 9, "name": "Цветущий берег", "city": "Мелеуз", "src": "/images/9.jpg" }, "geometry": { "type": "Point", "coordinates": [ 55.920867647054195, 52.959165154719258 ] } },
{ "type": "Feature", "properties": { "id": 10, "name": "Свободный парк", "city": "Свободный", "src": "/images/10.jpg" }, "geometry": { "type": "Point", "coordinates": [ 128.134718099354757, 51.386209800559406 ] } },
{ "type": "Feature", "properties": { "id": 11, "name": "Медвежье Заонежье", "city": "Медвежьегорск", "src": "/images/11.jpg" }, "geometry": { "type": "Point", "coordinates": [ 34.484928460547941, 62.915577179901902 ] } },
{ "type": "Feature", "properties": { "id": 12, "name": "Город у синего озера", "city": "Галич", "src": "/images/12.jpg" }, "geometry": { "type": "Point", "coordinates": [ 42.347846010697971, 58.380756859410013 ] } },
{ "type": "Feature", "properties": { "id": 13, "name": "Южный заряд", "city": "Южноуральск", "src": "/images/13.jpg" }, "geometry": { "type": "Point", "coordinates": [ 61.268228530898313, 54.442383828106401 ] } },
{ "type": "Feature", "properties": { "id": 14, "name": "Буйская стрелка", "city": "Буй", "src": "/images/14.jpg" }, "geometry": { "type": "Point", "coordinates": [ 41.529762126061286, 58.483193131147111 ] } },
{ "type": "Feature", "properties": { "id": 15, "name": "Золотой старт", "city": "Миасс", "src": "/images/15.jpg" }, "geometry": { "type": "Point", "coordinates": [ 60.097074705357308, 55.055761598664148 ] } },
{ "type": "Feature", "properties": { "id": 16, "name": "Галерея скверов", "city": "Сатка", "src": "/images/16.jpg" }, "geometry": { "type": "Point", "coordinates": [ 58.973597997995235, 55.046190072275614 ] } },
{ "type": "Feature", "properties": { "id": 17, "name": "Городские источники", "city": "Волгореченск", "src": "/images/17.jpg" }, "geometry": { "type": "Point", "coordinates": [ 41.154851454027678, 57.4410075289451 ] } },
{ "type": "Feature", "properties": { "id": 18, "name": "Река времени", "city": "Лобня", "src": "/images/18.jpg" }, "geometry": { "type": "Point", "coordinates": [ 37.460330152250009, 56.010695667625512 ] } },
{ "type": "Feature", "properties": { "id": 19, "name": "Парк за кинотеатром «Амигос»", "city": "Озёры", "src": "/images/19.jpg" }, "geometry": { "type": "Point", "coordinates": [ 38.534710340048704, 54.848259681546253 ] } },
{ "type": "Feature", "properties": { "id": 20, "name": "Советская площадь", "city": "Дмитров", "src": "/images/20.jpg" }, "geometry": { "type": "Point", "coordinates": [ 37.517690787677431, 56.343198430821424 ] } }
{ "type": "Feature", "properties": { "id": 21, "name": "Исток Невы", "city": "Шлиссельбург", "src": "/images/21.jpg" }, "geometry": { "type": "Point", "coordinates": [ 31.030819293838295, 59.944538870959093 ] } },
{ "type": "Feature", "properties": { "id": 22, "name": "Клин, звучи", "city": "Клин", "src": "/images/22.jpg" }, "geometry": { "type": "Point", "coordinates": [ 36.742867877895002, 56.331754046845049 ] } },
]
}
